{
  "version": "0.1.0",
  "lastUpdated": "2026-01-31",
  "playgrounds": [
    {
      "id": "admiralty-park",
      "name": "Admiralty Park Playground",
      "description": "Singapore's biggest playground with the most slides! Features curved slides, roller slides, barrel slides, twisting tube slides, and even a family slide wide enough for 4.",
      "address": "31 Riverside Road, Singapore 730000",
      "region": "North",
      "lat": 1.4464,
      "lng": 103.7833,
      "features": ["slides", "flying-fox", "cargo-nets", "swings", "sand-play", "inclusive"],
      "ageRange": "2-12",
      "hours": "24 hours",
      "isFree": true,
      "highlights": ["26 slides", "Flying fox", "Family slide"],
      "instagramHashtags": ["#admiraltypark", "#admiraltyplayground"],
      "googlePlaceId": null
    },
    {
      "id": "coastal-playgrove",
      "name": "Coastal Playgrove",
      "description": "4-storey high Play Tower at East Coast Park. Features vertical climbing challenge with slides from 3rd and 4th floors. Water play and nature playgarden for younger kids.",
      "address": "East Coast Park, Area B, Carpark B2",
      "region": "East",
      "lat": 1.3006,
      "lng": 103.9123,
      "features": ["high-element", "slides", "water-play", "sand-play", "climbing"],
      "ageRange": "3-14",
      "hours": "8am-8pm (Tue-Sun), Closed Mon",
      "isFree": true,
      "highlights": ["4-storey tower", "Water play", "Nature playgarden"],
      "instagramHashtags": ["#coastalplaygrove", "#eastcoastpark"],
      "googlePlaceId": null
    },
    {
      "id": "marine-cove",
      "name": "Marine Cove Playground",
      "description": "The OG massive playground at East Coast. Red lighthouse-inspired tower with funnel net leading to 3 slides at different levels. Suspension bridge, swings, maze, and more.",
      "address": "1000 ECP, Singapore 449876",
      "region": "East",
      "lat": 1.3024,
      "lng": 103.9234,
      "features": ["high-element", "slides", "swings", "climbing", "inclusive"],
      "ageRange": "2-12",
      "hours": "24 hours",
      "isFree": true,
      "highlights": ["Lighthouse tower", "Suspension bridge", "Inclusive equipment"],
      "instagramHashtags": ["#marinecove", "#marinecoveplayground"],
      "googlePlaceId": null
    },
    {
      "id": "west-coast-park",
      "name": "West Coast Park Playground",
      "description": "Large regional park with extensive playground featuring zipline flying fox. Great open space with varied play structures.",
      "address": "W Coast Ferry Road, Singapore 126978",
      "region": "West",
      "lat": 1.2893,
      "lng": 103.7654,
      "features": ["flying-fox", "climbing", "slides", "open-space"],
      "ageRange": "3-12",
      "hours": "24 hours (lights 7pm-7am)",
      "isFree": true,
      "highlights": ["Zipline flying fox", "Large open space"],
      "instagramHashtags": ["#westcoastpark", "#westcoastplayground"],
      "googlePlaceId": null
    },
    {
      "id": "jurong-lake-gardens",
      "name": "Forest Ramble & Clusia Cove",
      "description": "Nature playground at Jurong Lake Gardens with animal-themed structures like Otter Slide, Frog Play, and Heron Rope Course. Encourages climbing, balancing, and outdoor exploration.",
      "address": "Jurong Lake Gardens, Singapore",
      "region": "West",
      "lat": 1.3377,
      "lng": 103.7290,
      "features": ["nature-play", "themed", "climbing", "slides", "water-play"],
      "ageRange": "2-12",
      "hours": "24 hours",
      "isFree": true,
      "highlights": ["Animal-themed", "Clusia Cove water play", "Forest setting"],
      "instagramHashtags": ["#juronglakegardens", "#forestrumble", "#clusiacove"],
      "googlePlaceId": null
    },
    {
      "id": "jacob-ballas",
      "name": "Jacob Ballas Children's Garden",
      "description": "Asia's first children's garden located in Singapore Botanic Gardens. Nature-focused play with treehouse, suspension bridges, and educational elements.",
      "address": "Singapore Botanic Gardens, 481 Bukit Timah Rd",
      "region": "Central",
      "lat": 1.3186,
      "lng": 103.8148,
      "features": ["nature-play", "treehouse", "educational", "water-play"],
      "ageRange": "2-12",
      "hours": "8am-7pm (Tue-Sun), Closed Mon",
      "isFree": true,
      "highlights": ["Treehouse", "Nature learning", "Botanic Gardens setting"],
      "instagramHashtags": ["#jacobballas", "#botanicgardens"],
      "googlePlaceId": null
    },
    {
      "id": "gardens-by-the-bay-childrens",
      "name": "Children's Garden @ Gardens by the Bay",
      "description": "Water play paradise with interactive water features, treehouse, and nature-inspired play elements.",
      "address": "Gardens by the Bay, 18 Marina Gardens Dr",
      "region": "Central",
      "lat": 1.2816,
      "lng": 103.8636,
      "features": ["water-play", "treehouse", "nature-play"],
      "ageRange": "2-12",
      "hours": "10am-7pm (Tue-Fri), 9am-9pm (Sat-Sun)",
      "isFree": true,
      "highlights": ["Water play", "Supertree views", "Interactive features"],
      "instagramHashtags": ["#gardensbythebay", "#childrensgardensg"],
      "googlePlaceId": null
    },
    {
      "id": "propnex-family-zone",
      "name": "PropNex Family Zone",
      "description": "NEW playground at Gardens by the Bay inspired by Supertrees. Features Becky Bunny mascot and educational play elements.",
      "address": "Active Garden, Gardens by the Bay",
      "region": "Central",
      "lat": 1.2820,
      "lng": 103.8610,
      "features": ["themed", "educational", "nature-play"],
      "ageRange": "2-10",
      "hours": "5am-2am",
      "isFree": true,
      "highlights": ["NEW 2025", "Supertree inspired", "Becky Bunny mascot"],
      "instagramHashtags": ["#gardensbythebay", "#propnexfamilyzone"],
      "googlePlaceId": null
    },
    {
      "id": "bidadari-adventure-playwoods",
      "name": "Adventure Playwoods at Bidadari Park",
      "description": "Nature-inspired playground with 5-metre treehouse, climbing nets, slides, bird's nest observation pod, and zipline!",
      "address": "121 Upper Aljunied Rd, Singapore 367878",
      "region": "Central",
      "lat": 1.3389,
      "lng": 103.8712,
      "features": ["treehouse", "climbing", "zipline", "slides", "sand-play", "nature-play"],
      "ageRange": "4-12",
      "hours": "24 hours",
      "isFree": true,
      "highlights": ["NEW", "5m treehouse", "Zipline", "Bird's nest pod"],
      "instagramHashtags": ["#bidadaripark", "#adventureplaywoods"],
      "googlePlaceId": null
    },
    {
      "id": "mandai-wildlife-west",
      "name": "Bird Paradise & Mandai Wildlife West Playgrounds",
      "description": "3 free public playgrounds inspired by Sunda Pangolin. Pangolin Adventure, Pangolin Hideout, and Forest Stream mangrove playground.",
      "address": "Mandai Wildlife West",
      "region": "North",
      "lat": 1.4043,
      "lng": 103.7891,
      "features": ["themed", "climbing", "nature-play"],
      "ageRange": "3-10",
      "hours": "24 hours",
      "isFree": true,
      "highlights": ["Pangolin themed", "3 play areas", "Near Bird Paradise"],
      "instagramHashtags": ["#mandaiwildlife", "#birdparadisesg"],
      "googlePlaceId": null
    },
    {
      "id": "northpoint-water-playground",
      "name": "Water Playground at Northpoint City",
      "description": "Rooftop water playground with tunnel slides, fountains, and splash areas. Sheltered area for younger kids.",
      "address": "Northpoint City Rooftop, Level 4",
      "region": "North",
      "lat": 1.4294,
      "lng": 103.8352,
      "features": ["water-play", "slides", "mall"],
      "ageRange": "2-10",
      "hours": "10:30am-9pm (Tue-Sun), Closed Mon",
      "isFree": true,
      "highlights": ["Mall rooftop", "Tunnel slide", "Air-conditioned nearby"],
      "instagramHashtags": ["#northpointcity", "#waterplayground"],
      "googlePlaceId": null
    },
    {
      "id": "cck-road-safety",
      "name": "Choa Chu Kang Mini-Road Safety Playground",
      "description": "Unique mini road circuit teaching road safety. Complete with markings, zebra crossings, traffic signs - perfect for bikes and scooters!",
      "address": "Block 208 Choa Chu Kang Central, Singapore 680208",
      "region": "West",
      "lat": 1.3849,
      "lng": 103.7449,
      "features": ["themed", "educational", "cycling"],
      "ageRange": "3-10",
      "hours": "24 hours",
      "isFree": true,
      "highlights": ["Road safety learning", "Bike-friendly", "Traffic signs"],
      "instagramHashtags": ["#cckplayground", "#roadsafetyplayground"],
      "googlePlaceId": null
    },
    {
      "id": "bukit-canberra",
      "name": "Canberra Cove & Forest Gym at Bukit Canberra",
      "description": "Integrated hub with water play at Canberra Cove and nature-themed Forest Gym playground.",
      "address": "Bukit Canberra",
      "region": "North",
      "lat": 1.4433,
      "lng": 103.8283,
      "features": ["water-play", "nature-play", "climbing"],
      "ageRange": "3-12",
      "hours": "7am-9pm",
      "isFree": true,
      "highlights": ["Canberra Cove splash", "Forest Gym", "Integrated hub"],
      "instagramHashtags": ["#bukitcanberra", "#canberracove"],
      "googlePlaceId": null
    },
    {
      "id": "heights-park-toa-payoh",
      "name": "Play @ Heights Park",
      "description": "Toa Payoh rooftop playground with water play, slides, and city views.",
      "address": "Heights Park, Toa Payoh",
      "region": "Central",
      "lat": 1.3343,
      "lng": 103.8563,
      "features": ["water-play", "slides", "rooftop"],
      "ageRange": "3-12",
      "hours": "8am-8pm",
      "isFree": true,
      "highlights": ["Rooftop", "Water play", "City views"],
      "instagramHashtags": ["#heightspark", "#toapayohplayground"],
      "googlePlaceId": null
    },
    {
      "id": "yishun-n8",
      "name": "Yishun Neighbourhood N8 Park Playground",
      "description": "High-element playground with challenging climbing structures and slides.",
      "address": "Yishun N8 Neighbourhood Park",
      "region": "North",
      "lat": 1.4253,
      "lng": 103.8351,
      "features": ["high-element", "climbing", "slides"],
      "ageRange": "5-12",
      "hours": "24 hours",
      "isFree": true,
      "highlights": ["High elements", "Challenging"],
      "instagramHashtags": ["#yishunplayground"],
      "googlePlaceId": null
    },
    {
      "id": "como-adventure-grove",
      "name": "COMO Adventure Grove",
      "description": "Nature playground in Botanic Gardens with treehouses, rope bridges, and natural play elements.",
      "address": "Singapore Botanic Gardens",
      "region": "Central",
      "lat": 1.3155,
      "lng": 103.8160,
      "features": ["nature-play", "treehouse", "climbing"],
      "ageRange": "3-12",
      "hours": "9am-6pm",
      "isFree": true,
      "highlights": ["Botanic Gardens", "Treehouses", "Nature immersion"],
      "instagramHashtags": ["#comoadventuregrove", "#botanicgardens"],
      "googlePlaceId": null
    },
    {
      "id": "jubilee-park",
      "name": "Jubilee Park - Fort Canning",
      "description": "Nature playground at Fort Canning with historical context, climbing structures, and green surroundings.",
      "address": "Fort Canning Park",
      "region": "Central",
      "lat": 1.2935,
      "lng": 103.8461,
      "features": ["nature-play", "climbing", "historical"],
      "ageRange": "3-12",
      "hours": "7am-7pm",
      "isFree": true,
      "highlights": ["Fort Canning", "Nature play", "Historical setting"],
      "instagramHashtags": ["#jubileepark", "#fortcanning"],
      "googlePlaceId": null
    },
    {
      "id": "hortpark-nature-playgarden",
      "name": "Nature Playgarden at HortPark",
      "description": "Eco-friendly playground with natural materials, sensory garden, and educational elements.",
      "address": "HortPark, 33 Hyderabad Rd",
      "region": "South",
      "lat": 1.2768,
      "lng": 103.8003,
      "features": ["nature-play", "educational", "sensory"],
      "ageRange": "2-10",
      "hours": "6am-10pm",
      "isFree": true,
      "highlights": ["Eco playground", "Sensory garden", "Nature learning"],
      "instagramHashtags": ["#hortpark", "#natureplaygarden"],
      "googlePlaceId": null
    },
    {
      "id": "the-oval-seletar",
      "name": "The Oval @ Seletar Aerospace Park",
      "description": "Aviation-themed playground with airplane structures, perfect for little pilots!",
      "address": "Seletar Aerospace Park",
      "region": "North",
      "lat": 1.4186,
      "lng": 103.8668,
      "features": ["themed", "climbing", "slides"],
      "ageRange": "3-12",
      "hours": "24 hours",
      "isFree": true,
      "highlights": ["Airplane theme", "Seletar setting", "Aviation play"],
      "instagramHashtags": ["#theovalseletar", "#seletarplayground"],
      "googlePlaceId": null
    },
    {
      "id": "sembawang-battleship",
      "name": "Sembawang Park Battleship Playground",
      "description": "Iconic battleship-themed playground with naval heritage. Climb aboard for adventure!",
      "address": "Sembawang Park",
      "region": "North",
      "lat": 1.4574,
      "lng": 103.8251,
      "features": ["themed", "climbing", "historical"],
      "ageRange": "3-12",
      "hours": "24 hours",
      "isFree": true,
      "highlights": ["Battleship theme", "Seaside location", "Naval heritage"],
      "instagramHashtags": ["#sembawangpark", "#battleshipplayground"],
      "googlePlaceId": null
    },
    {
      "id": "dawson-vista-wonderland",
      "name": "Dawson Vista Wonderland Playground",
      "description": "Alice in Wonderland themed playground with whimsical structures and imaginative play.",
      "address": "Dawson Vista",
      "region": "Central",
      "lat": 1.2888,
      "lng": 103.8048,
      "features": ["themed", "imaginative", "slides"],
      "ageRange": "3-10",
      "hours": "24 hours",
      "isFree": true,
      "highlights": ["Wonderland theme", "Whimsical", "Photo-worthy"],
      "instagramHashtags": ["#dawsonvista", "#wonderlandplayground"],
      "googlePlaceId": null
    },
    {
      "id": "vivocity-playcourt",
      "name": "Play Court at VivoCity",
      "description": "Rooftop playground at VivoCity mall with water play and harbour views.",
      "address": "VivoCity, Level 3 Rooftop",
      "region": "South",
      "lat": 1.2644,
      "lng": 103.8222,
      "features": ["water-play", "mall", "slides"],
      "ageRange": "2-10",
      "hours": "10am-9pm",
      "isFree": true,
      "highlights": ["Mall location", "Harbour views", "Water play"],
      "instagramHashtags": ["#vivocity", "#vivocityplayground"],
      "googlePlaceId": null
    },
    {
      "id": "tampines-green-park",
      "name": "Tampines Green Park Playgrounds",
      "description": "High-element playground with challenging structures for older kids.",
      "address": "Tampines Green Park",
      "region": "East",
      "lat": 1.3530,
      "lng": 103.9553,
      "features": ["high-element", "climbing", "slides"],
      "ageRange": "6-14",
      "hours": "24 hours",
      "isFree": true,
      "highlights": ["High elements", "Challenging", "Older kids"],
      "instagramHashtags": ["#tampinesplayground", "#tampinesgreenpark"],
      "googlePlaceId": null
    },
    {
      "id": "punggol-waterway",
      "name": "Animal-themed Playground at Punggol Waterway",
      "description": "Animal-themed playground along Punggol Waterway with imaginative structures.",
      "address": "Punggol Waterway",
      "region": "North-East",
      "lat": 1.4043,
      "lng": 103.9021,
      "features": ["themed", "nature-play", "waterway"],
      "ageRange": "3-10",
      "hours": "24 hours",
      "isFree": true,
      "highlights": ["Animal theme", "Waterway views", "NEW"],
      "instagramHashtags": ["#punggolwaterway", "#punggolplayground"],
      "googlePlaceId": null
    },
    {
      "id": "keat-hong-arena",
      "name": "The Arena @ Keat Hong",
      "description": "High-element playground with exciting climbing challenges and slides.",
      "address": "Keat Hong",
      "region": "West",
      "lat": 1.3786,
      "lng": 103.7485,
      "features": ["high-element", "climbing", "slides"],
      "ageRange": "5-14",
      "hours": "24 hours",
      "isFree": true,
      "highlights": ["High elements", "The Arena"],
      "instagramHashtags": ["#keatarena", "#keathongplayground"],
      "googlePlaceId": null
    }
  ],
  "features": {
    "slides": "Slides of various types",
    "water-play": "Water play areas",
    "sand-play": "Sand play areas",
    "climbing": "Climbing structures",
    "high-element": "Tall/challenging structures (13+)",
    "flying-fox": "Zipline/Flying fox",
    "swings": "Swings",
    "treehouse": "Treehouse structures",
    "nature-play": "Nature-themed play",
    "themed": "Special themed playground",
    "educational": "Educational elements",
    "inclusive": "Inclusive/accessible equipment",
    "cargo-nets": "Cargo net climbing",
    "mall": "Located in/near mall",
    "rooftop": "Rooftop location"
  },
  "regions": ["North", "South", "East", "West", "Central", "North-East"]
}
